<?xml version="1.0" encoding="utf-8"?>
<kml xmlns="http://earth.google.com/kml/2.1">

<Document>
<name>092 船底顶(石门台-平坑-船底顶-峡洞[韶关-航点]</name>
<open>1</open>

<Placemark>
<name>村子</name>
<description></description>
<Point>
<coordinates>113.297967,24.430017,0</coordinates>
</Point>
</Placemark>

<Placemark>
<name>18号</name>
<description></description>
<Point>
<coordinates>113.300783,24.449800,0</coordinates>
</Point>
</Placemark>

<Placemark>
<name>乱石堆</name>
<description></description>
<Point>
<coordinates>113.304000,24.463733,0</coordinates>
</Point>
</Placemark>

<Placemark>
<name>平坑</name>
<description></description>
<Point>
<coordinates>113.302200,24.479733,0</coordinates>
</Point>
</Placemark>

<Placemark>
<name>联山小学</name>
<description></description>
<Point>
<coordinates>113.235483,24.420250,0</coordinates>
</Point>
</Placemark>

<Placemark>
<name>金矿</name>
<description></description>
<Point>
<coordinates>113.235150,24.472983,0</coordinates>
</Point>
</Placemark>

<Placemark>
<name>山顶营地</name>
<description></description>
<Point>
<coordinates>113.260050,24.481350,0</coordinates>
</Point>
</Placemark>

<Placemark>
<name>悬崖</name>
<description></description>
<Point>
<coordinates>113.262767,24.480150,0</coordinates>
</Point>
</Placemark>

<Placemark>
<name>水渠起点</name>
<description></description>
<Point>
<coordinates>113.286700,24.483150,0</coordinates>
</Point>
</Placemark>

<Placemark>
<name>水渠尽头</name>
<description></description>
<Point>
<coordinates>113.277600,24.473267,0</coordinates>
</Point>
</Placemark>

<Placemark>
<name>碎石坡横切点</name>
<description></description>
<Point>
<coordinates>113.262833,24.480083,0</coordinates>
</Point>
</Placemark>

<Placemark>
<name>仙女湖上山处</name>
<description></description>
<Point>
<coordinates>113.211017,24.518183,0</coordinates>
</Point>
</Placemark>

<Placemark>
<name>火烧山</name>
<description></description>
<Point>
<coordinates>113.200867,24.524967,0</coordinates>
</Point>
</Placemark>

<Placemark>
<name>大布下江村</name>
<description></description>
<Point>
<coordinates>113.145433,24.542283,0</coordinates>
</Point>
</Placemark>


</Document>
</kml>
