<?xml version="1.0" encoding="utf-8"?>
<kml xmlns="http://earth.google.com/kml/2.1">

<Document>
<name>103 上海磨房武功山穿越(080501)[萍乡-航点]</name>
<open>1</open>

<Placemark>
<name>杨家岭</name>
<description></description>
<Point>
<coordinates>114.247517,27.584050,0</coordinates>
</Point>
</Placemark>

<Placemark>
<name>瀑布平台</name>
<description></description>
<Point>
<coordinates>114.256183,27.578567,0</coordinates>
</Point>
</Placemark>

<Placemark>
<name>日月山庄</name>
<description></description>
<Point>
<coordinates>114.249383,27.562083,0</coordinates>
</Point>
</Placemark>

<Placemark>
<name>岔路口左走发云寺右走老山</name>
<description></description>
<Point>
<coordinates>114.226833,27.553583,0</coordinates>
</Point>
</Placemark>

<Placemark>
<name>龙山接待站</name>
<description></description>
<Point>
<coordinates>114.193133,27.523000,0</coordinates>
</Point>
</Placemark>

<Placemark>
<name>金顶</name>
<description></description>
<Point>
<coordinates>114.173500,27.454900,0</coordinates>
</Point>
</Placemark>

<Placemark>
<name>乌下</name>
<description></description>
<Point>
<coordinates>114.235283,27.583033,0</coordinates>
</Point>
</Placemark>

<Placemark>
<name>公路尽头</name>
<description></description>
<Point>
<coordinates>114.237367,27.573617,0</coordinates>
</Point>
</Placemark>

<Placemark>
<name>岔路口右走土路去沈家大院羊师幕</name>
<description></description>
<Point>
<coordinates>114.242117,27.561333,0</coordinates>
</Point>
</Placemark>

<Placemark>
<name>岔口向右去沈家大院向左去羊师幕</name>
<description></description>
<Point>
<coordinates>114.242667,27.560517,0</coordinates>
</Point>
</Placemark>

<Placemark>
<name>岔路口向左去沈家大院</name>
<description></description>
<Point>
<coordinates>114.242267,27.560250,0</coordinates>
</Point>
</Placemark>

<Placemark>
<name>沈家大院</name>
<description></description>
<Point>
<coordinates>114.235650,27.558183,0</coordinates>
</Point>
</Placemark>

<Placemark>
<name>鞍部</name>
<description></description>
<Point>
<coordinates>114.221100,27.548483,0</coordinates>
</Point>
</Placemark>

<Placemark>
<name>丛林营地</name>
<description></description>
<Point>
<coordinates>114.216450,27.532100,0</coordinates>
</Point>
</Placemark>

<Placemark>
<name>草甸入口</name>
<description></description>
<Point>
<coordinates>114.215867,27.531017,0</coordinates>
</Point>
</Placemark>

<Placemark>
<name>岔路口向右去发云寺</name>
<description></description>
<Point>
<coordinates>114.212850,27.528750,0</coordinates>
</Point>
</Placemark>

<Placemark>
<name>水管水源</name>
<description></description>
<Point>
<coordinates>114.212200,27.528183,0</coordinates>
</Point>
</Placemark>

<Placemark>
<name>发云寺</name>
<description></description>
<Point>
<coordinates>114.198000,27.525450,0</coordinates>
</Point>
</Placemark>

<Placemark>
<name>岔路口直走龙山接待站向右白云客栈</name>
<description></description>
<Point>
<coordinates>114.194950,27.524067,0</coordinates>
</Point>
</Placemark>

<Placemark>
<name>水源</name>
<description></description>
<Point>
<coordinates>114.197450,27.496700,0</coordinates>
</Point>
</Placemark>

<Placemark>
<name>白云客栈</name>
<description></description>
<Point>
<coordinates>114.179733,27.475100,0</coordinates>
</Point>
</Placemark>

<Placemark>
<name>营地</name>
<description></description>
<Point>
<coordinates>114.179100,27.476183,0</coordinates>
</Point>
</Placemark>

<Placemark>
<name>山门</name>
<description></description>
<Point>
<coordinates>114.164850,27.496600,0</coordinates>
</Point>
</Placemark>

<Placemark>
<name>岔路口直走金顶向右白云客栈</name>
<description></description>
<Point>
<coordinates>114.184521,27.475032,0</coordinates>
</Point>
</Placemark>


</Document>
</kml>
