<?xml version="1.0" encoding="utf-8"?>
<kml xmlns="http://earth.google.com/kml/2.1">

<Document>
<name>160 夏特古道[伊犁哈萨克自治州-航点] </name>
<open>1</open>

<Placemark>
<name>第1天营地</name>
<description></description>
<Point>
<coordinates>80.843050,42.406500,0</coordinates>
</Point>
</Placemark>

<Placemark>
<name>木屋</name>
<description></description>
<Point>
<coordinates>80.809350,42.392983,0</coordinates>
</Point>
</Placemark>

<Placemark>
<name>第2天营地</name>
<description></description>
<Point>
<coordinates>80.792167,42.337550,0</coordinates>
</Point>
</Placemark>

<Placemark>
<name>第3天营地</name>
<description></description>
<Point>
<coordinates>80.715067,42.258350,0</coordinates>
</Point>
</Placemark>

<Placemark>
<name>羊圈</name>
<description></description>
<Point>
<coordinates>80.745550,42.116300,0</coordinates>
</Point>
</Placemark>

<Placemark>
<name>玉石矿</name>
<description></description>
<Point>
<coordinates>80.786400,42.055367,0</coordinates>
</Point>
</Placemark>

<Placemark>
<name>第4天营地</name>
<description></description>
<Point>
<coordinates>80.815017,42.056367,0</coordinates>
</Point>
</Placemark>

<Placemark>
<name>兵营遗址</name>
<description></description>
<Point>
<coordinates>80.750900,42.286267,0</coordinates>
</Point>
</Placemark>

<Placemark>
<name>过河处</name>
<description></description>
<Point>
<coordinates>80.855433,42.016717,0</coordinates>
</Point>
</Placemark>

<Placemark>
<name>小采石场</name>
<description></description>
<Point>
<coordinates>80.874967,41.968600,0</coordinates>
</Point>
</Placemark>

<Placemark>
<name>采石场</name>
<description></description>
<Point>
<coordinates>80.881450,41.940433,0</coordinates>
</Point>
</Placemark>


</Document>
</kml>
